[
  {
    "nombre": "Jorge Medina and Josi Cuen",
    "fecha": "2025-09-11",
    "lugar": "Palenque Tijuana",
    "enlace": "https://www.songkick.com/concerts/42709465-jorge-medina-at-palenque-tijuana",
    "latitude": 32.49932,
    "longitude": -116.93634,
    "distance_km": 9.71
  },
  {
    "nombre": "Jorge Medina and Josi Cuen",
    "fecha": "2025-09-11",
    "lugar": "Palenque Tijuana",
    "enlace": "https://www.songkick.com/concerts/42709465-jorge-medina-at-palenque-tijuana",
    "latitude": 32.49932,
    "longitude": -116.93634,
    "distance_km": 9.71
  },
  {
    "nombre": "Ritmo Cósmico",
    "fecha": "2025-09-13",
    "lugar": "Nomada Tijuana",
    "enlace": "https://www.songkick.com/concerts/42764893-ritmo-cosmico-at-nomada-tijuana",
    "latitude": 32.53066,
    "longitude": -117.03465,
    "distance_km": 1.78
  },
  {
    "nombre": "Ritmo Cósmico",
    "fecha": "2025-09-13",
    "lugar": "Nomada Tijuana",
    "enlace": "https://www.songkick.com/concerts/42764893-ritmo-cosmico-at-nomada-tijuana",
    "latitude": 32.53066,
    "longitude": -117.03465,
    "distance_km": 1.78
  },
  {
    "nombre": "El Malilla",
    "fecha": "2025-09-14",
    "lugar": "Parque Morelos",
    "enlace": "https://www.songkick.com/concerts/42757673-el-malilla-at-parque-morelos",
    "latitude": 32.4991,
    "longitude": -116.9356,
    "distance_km": 9.78
  },
  {
    "nombre": "Outdoor",
    "fecha": "2025-09-14",
    "lugar": "Parque Morelos",
    "enlace": "https://www.songkick.com/concerts/42757673-el-malilla-at-parque-morelos",
    "latitude": 32.4991,
    "longitude": -116.9356,
    "distance_km": 9.78
  },
  {
    "nombre": "Matute",
    "fecha": "2025-09-14",
    "lugar": "Palenque Tijuana",
    "enlace": "https://www.songkick.com/concerts/42757671-matute-at-palenque-tijuana",
    "latitude": 32.49932,
    "longitude": -116.93634,
    "distance_km": 9.71
  },
  {
    "nombre": "Matute",
    "fecha": "2025-09-14",
    "lugar": "Palenque Tijuana",
    "enlace": "https://www.songkick.com/concerts/42757671-matute-at-palenque-tijuana",
    "latitude": 32.49932,
    "longitude": -116.93634,
    "distance_km": 9.71
  },
  {
    "nombre": "Kevin AMF",
    "fecha": "2025-09-18",
    "lugar": "Parque Morelos",
    "enlace": "https://www.songkick.com/concerts/42757669-kevin-amf-at-parque-morelos",
    "latitude": 32.4991,
    "longitude": -116.9356,
    "distance_km": 9.78
  },
  {
    "nombre": "Outdoor",
    "fecha": "2025-09-18",
    "lugar": "Parque Morelos",
    "enlace": "https://www.songkick.com/concerts/42757669-kevin-amf-at-parque-morelos",
    "latitude": 32.4991,
    "longitude": -116.9356,
    "distance_km": 9.78
  },
  {
    "nombre": "Luisa Almaguer",
    "fecha": "2025-09-19",
    "lugar": "La Maquila - Estación Cultural",
    "enlace": "https://www.songkick.com/concerts/42727642-luisa-almaguer-at-la-maquila-estacion-cultural",
    "latitude": 32.52958,
    "longitude": -117.01603,
    "distance_km": 2.64
  },
  {
    "nombre": "Luisa Almaguer",
    "fecha": "2025-09-19",
    "lugar": "La Maquila - Estación Cultural",
    "enlace": "https://www.songkick.com/concerts/42727642-luisa-almaguer-at-la-maquila-estacion-cultural",
    "latitude": 32.52958,
    "longitude": -117.01603,
    "distance_km": 2.64
  },
  {
    "nombre": "90s Pop Tour",
    "fecha": "2025-09-20",
    "lugar": "Parque Morelos",
    "enlace": "https://www.songkick.com/concerts/42706781-90s-pop-tour-at-parque-morelos",
    "latitude": 32.4991,
    "longitude": -116.9356,
    "distance_km": 9.78
  },
  {
    "nombre": "Outdoor",
    "fecha": "2025-09-20",
    "lugar": "Parque Morelos",
    "enlace": "https://www.songkick.com/concerts/42706781-90s-pop-tour-at-parque-morelos",
    "latitude": 32.4991,
    "longitude": -116.9356,
    "distance_km": 9.78
  },
  {
    "nombre": "Edén Muñoz",
    "fecha": "2025-09-25",
    "lugar": "Palenque Tijuana",
    "enlace": "https://www.songkick.com/concerts/42757666-eden-munoz-at-palenque-tijuana",
    "latitude": 32.49932,
    "longitude": -116.93634,
    "distance_km": 9.71
  },
  {
    "nombre": "Edén Muñoz",
    "fecha": "2025-09-25",
    "lugar": "Palenque Tijuana",
    "enlace": "https://www.songkick.com/concerts/42757666-eden-munoz-at-palenque-tijuana",
    "latitude": 32.49932,
    "longitude": -116.93634,
    "distance_km": 9.71
  },
  {
    "nombre": "Kinky and DLD",
    "fecha": "2025-09-26",
    "lugar": "Parque Morelos",
    "enlace": "https://www.songkick.com/concerts/42757663-kinky-at-parque-morelos",
    "latitude": 32.4991,
    "longitude": -116.9356,
    "distance_km": 9.78
  },
  {
    "nombre": "Outdoor",
    "fecha": "2025-09-26",
    "lugar": "Parque Morelos",
    "enlace": "https://www.songkick.com/concerts/42757663-kinky-at-parque-morelos",
    "latitude": 32.4991,
    "longitude": -116.9356,
    "distance_km": 9.78
  },
  {
    "nombre": "Allison",
    "fecha": "2025-09-26",
    "lugar": "Black Box",
    "enlace": "https://www.songkick.com/concerts/42705676-allison-at-black-box",
    "latitude": 32.50895,
    "longitude": -117.03667,
    "distance_km": 0.68
  },
  {
    "nombre": "Allison",
    "fecha": "2025-09-26",
    "lugar": "Black Box",
    "enlace": "https://www.songkick.com/concerts/42705676-allison-at-black-box",
    "latitude": 32.50895,
    "longitude": -117.03667,
    "distance_km": 0.68
  },
  {
    "nombre": "Sous-Sol",
    "fecha": "2025-09-26",
    "lugar": "La Maquila - Estación Cultural",
    "enlace": "https://www.songkick.com/concerts/42739519-soussol-at-la-maquila-estacion-cultural",
    "latitude": 32.52958,
    "longitude": -117.01603,
    "distance_km": 2.64
  },
  {
    "nombre": "Sous-Sol",
    "fecha": "2025-09-26",
    "lugar": "La Maquila - Estación Cultural",
    "enlace": "https://www.songkick.com/concerts/42739519-soussol-at-la-maquila-estacion-cultural",
    "latitude": 32.52958,
    "longitude": -117.01603,
    "distance_km": 2.64
  },
  {
    "nombre": "Edén Muñoz",
    "fecha": "2025-09-26",
    "lugar": "Palenque Tijuana",
    "enlace": "https://www.songkick.com/concerts/42757662-eden-munoz-at-palenque-tijuana",
    "latitude": 32.49932,
    "longitude": -116.93634,
    "distance_km": 9.71
  },
  {
    "nombre": "Edén Muñoz",
    "fecha": "2025-09-26",
    "lugar": "Palenque Tijuana",
    "enlace": "https://www.songkick.com/concerts/42757662-eden-munoz-at-palenque-tijuana",
    "latitude": 32.49932,
    "longitude": -116.93634,
    "distance_km": 9.71
  },
  {
    "nombre": "Banda MS de Sergio Lizárraga",
    "fecha": "2025-09-27",
    "lugar": "Palenque Tijuana",
    "enlace": "https://www.songkick.com/concerts/42731737-banda-ms-de-sergio-lizarraga-at-palenque-tijuana",
    "latitude": 32.49932,
    "longitude": -116.93634,
    "distance_km": 9.71
  },
  {
    "nombre": "Banda MS de Sergio Lizárraga",
    "fecha": "2025-09-27",
    "lugar": "Palenque Tijuana",
    "enlace": "https://www.songkick.com/concerts/42731737-banda-ms-de-sergio-lizarraga-at-palenque-tijuana",
    "latitude": 32.49932,
    "longitude": -116.93634,
    "distance_km": 9.71
  },
  {
    "nombre": "Xandria",
    "fecha": "2025-09-27",
    "lugar": "Black Box",
    "enlace": "https://www.songkick.com/concerts/42587263-xandria-at-black-box",
    "latitude": 32.50895,
    "longitude": -117.03667,
    "distance_km": 0.68
  },
  {
    "nombre": "Xandria",
    "fecha": "2025-09-27",
    "lugar": "Black Box",
    "enlace": "https://www.songkick.com/concerts/42587263-xandria-at-black-box",
    "latitude": 32.50895,
    "longitude": -117.03667,
    "distance_km": 0.68
  },
  {
    "nombre": "Paty Cantú",
    "fecha": "2025-09-28",
    "lugar": "Parque Morelos",
    "enlace": "https://www.songkick.com/concerts/42757661-paty-cantu-at-parque-morelos",
    "latitude": 32.4991,
    "longitude": -116.9356,
    "distance_km": 9.78
  },
  {
    "nombre": "Outdoor",
    "fecha": "2025-09-28",
    "lugar": "Parque Morelos",
    "enlace": "https://www.songkick.com/concerts/42757661-paty-cantu-at-parque-morelos",
    "latitude": 32.4991,
    "longitude": -116.9356,
    "distance_km": 9.78
  },
  {
    "nombre": "Grupo Firme",
    "fecha": "2025-09-28",
    "lugar": "Palenque Tijuana",
    "enlace": "https://www.songkick.com/concerts/42757660-grupo-firme-at-palenque-tijuana",
    "latitude": 32.49932,
    "longitude": -116.93634,
    "distance_km": 9.71
  },
  {
    "nombre": "Grupo Firme",
    "fecha": "2025-09-28",
    "lugar": "Palenque Tijuana",
    "enlace": "https://www.songkick.com/concerts/42757660-grupo-firme-at-palenque-tijuana",
    "latitude": 32.49932,
    "longitude": -116.93634,
    "distance_km": 9.71
  },
  {
    "nombre": "Rata Blanca",
    "fecha": "2025-10-03",
    "lugar": "Black Box",
    "enlace": "https://www.songkick.com/concerts/42761293-rata-blanca-at-black-box",
    "latitude": 32.50895,
    "longitude": -117.03667,
    "distance_km": 0.68
  },
  {
    "nombre": "Rata Blanca",
    "fecha": "2025-10-03",
    "lugar": "Black Box",
    "enlace": "https://www.songkick.com/concerts/42761293-rata-blanca-at-black-box",
    "latitude": 32.50895,
    "longitude": -117.03667,
    "distance_km": 0.68
  },
  {
    "nombre": "ARCANO",
    "fecha": "2025-10-03",
    "lugar": "El Foro",
    "enlace": "https://www.songkick.com/concerts/42689113-arcano-at-el-foro",
    "latitude": 32.53095,
    "longitude": -117.03649,
    "distance_km": 1.79
  },
  {
    "nombre": "ARCANO",
    "fecha": "2025-10-03",
    "lugar": "El Foro",
    "enlace": "https://www.songkick.com/concerts/42689113-arcano-at-el-foro",
    "latitude": 32.53095,
    "longitude": -117.03649,
    "distance_km": 1.79
  },
  {
    "nombre": "Rxnde Akozta",
    "fecha": "2025-10-03",
    "lugar": "Ah Mun",
    "enlace": "https://www.songkick.com/concerts/42770937-rxnde-akozta-at-ah-mun",
    "latitude": 32.52994,
    "longitude": -117.03672,
    "distance_km": 1.68
  },
  {
    "nombre": "Rxnde Akozta",
    "fecha": "2025-10-03",
    "lugar": "Ah Mun",
    "enlace": "https://www.songkick.com/concerts/42770937-rxnde-akozta-at-ah-mun",
    "latitude": 32.52994,
    "longitude": -117.03672,
    "distance_km": 1.68
  },
  {
    "nombre": "Enjambre",
    "fecha": "2025-10-04",
    "lugar": "Audiorama El Trompo",
    "enlace": "https://www.songkick.com/concerts/42590426-enjambre-at-audiorama-el-trompo",
    "latitude": 32.47735,
    "longitude": -116.92134,
    "distance_km": 11.73
  },
  {
    "nombre": "Enjambre",
    "fecha": "2025-10-04",
    "lugar": "Audiorama El Trompo",
    "enlace": "https://www.songkick.com/concerts/42590426-enjambre-at-audiorama-el-trompo",
    "latitude": 32.47735,
    "longitude": -116.92134,
    "distance_km": 11.73
  },
  {
    "nombre": "Insite",
    "fecha": "2025-10-04",
    "lugar": "Marko Disko",
    "enlace": "https://www.songkick.com/concerts/42760860-insite-at-marko-disko",
    "latitude": 32.51961,
    "longitude": -117.02249,
    "distance_km": 1.56
  },
  {
    "nombre": "Insite",
    "fecha": "2025-10-04",
    "lugar": "Marko Disko",
    "enlace": "https://www.songkick.com/concerts/42760860-insite-at-marko-disko",
    "latitude": 32.51961,
    "longitude": -117.02249,
    "distance_km": 1.56
  },
  {
    "nombre": "Toser One",
    "fecha": "2025-10-04",
    "lugar": "Foro Nebraska",
    "enlace": "https://www.songkick.com/concerts/42690286-toser-one-at-foro-nebraska",
    "latitude": 32.53107,
    "longitude": -117.03714,
    "distance_km": 1.8
  },
  {
    "nombre": "Toser One",
    "fecha": "2025-10-04",
    "lugar": "Foro Nebraska",
    "enlace": "https://www.songkick.com/concerts/42690286-toser-one-at-foro-nebraska",
    "latitude": 32.53107,
    "longitude": -117.03714,
    "distance_km": 1.8
  },
  {
    "nombre": "Paloma Morphy",
    "fecha": "2025-10-04",
    "lugar": "La Maquila - Estación Cultural",
    "enlace": "https://www.songkick.com/concerts/42767799-paloma-morphy-at-la-maquila-estacion-cultural",
    "latitude": 32.52958,
    "longitude": -117.01603,
    "distance_km": 2.64
  },
  {
    "nombre": "Paloma Morphy",
    "fecha": "2025-10-04",
    "lugar": "La Maquila - Estación Cultural",
    "enlace": "https://www.songkick.com/concerts/42767799-paloma-morphy-at-la-maquila-estacion-cultural",
    "latitude": 32.52958,
    "longitude": -117.01603,
    "distance_km": 2.64
  },
  {
    "nombre": "Simpson Ahuevo",
    "fecha": "2025-10-08",
    "lugar": "Black Box",
    "enlace": "https://www.songkick.com/concerts/42749457-simpson-ahuevo-at-black-box",
    "latitude": 32.50895,
    "longitude": -117.03667,
    "distance_km": 0.68
  },
  {
    "nombre": "Simpson Ahuevo",
    "fecha": "2025-10-08",
    "lugar": "Black Box",
    "enlace": "https://www.songkick.com/concerts/42749457-simpson-ahuevo-at-black-box",
    "latitude": 32.50895,
    "longitude": -117.03667,
    "distance_km": 0.68
  },
  {
    "nombre": "Lollypop Lorry",
    "fecha": "2025-10-10",
    "lugar": "Black Box",
    "enlace": "https://www.songkick.com/concerts/42749453-lollypop-lorry-at-black-box",
    "latitude": 32.50895,
    "longitude": -117.03667,
    "distance_km": 0.68
  },
  {
    "nombre": "Lollypop Lorry",
    "fecha": "2025-10-10",
    "lugar": "Black Box",
    "enlace": "https://www.songkick.com/concerts/42749453-lollypop-lorry-at-black-box",
    "latitude": 32.50895,
    "longitude": -117.03667,
    "distance_km": 0.68
  },
  {
    "nombre": "Chayanne",
    "fecha": "2025-10-16",
    "lugar": "Estadio Chevron",
    "enlace": "https://www.songkick.com/concerts/42669067-chayanne-at-estadio-chevron",
    "latitude": 32.48456,
    "longitude": -116.93067,
    "distance_km": 10.63
  },
  {
    "nombre": "Chayanne",
    "fecha": "2025-10-16",
    "lugar": "Estadio Chevron",
    "enlace": "https://www.songkick.com/concerts/42669067-chayanne-at-estadio-chevron",
    "latitude": 32.48456,
    "longitude": -116.93067,
    "distance_km": 10.63
  },
  {
    "nombre": "French Police",
    "fecha": "2025-10-17",
    "lugar": "Marko Disko",
    "enlace": "https://www.songkick.com/concerts/42593596-french-police-at-marko-disko",
    "latitude": 32.51961,
    "longitude": -117.02249,
    "distance_km": 1.56
  },
  {
    "nombre": "French Police",
    "fecha": "2025-10-17",
    "lugar": "Marko Disko",
    "enlace": "https://www.songkick.com/concerts/42593596-french-police-at-marko-disko",
    "latitude": 32.51961,
    "longitude": -117.02249,
    "distance_km": 1.56
  },
  {
    "nombre": "Marduk",
    "fecha": "2025-10-18",
    "lugar": "Black Box",
    "enlace": "https://www.songkick.com/concerts/42666802-marduk-at-black-box",
    "latitude": 32.50895,
    "longitude": -117.03667,
    "distance_km": 0.68
  },
  {
    "nombre": "Marduk",
    "fecha": "2025-10-18",
    "lugar": "Black Box",
    "enlace": "https://www.songkick.com/concerts/42666802-marduk-at-black-box",
    "latitude": 32.50895,
    "longitude": -117.03667,
    "distance_km": 0.68
  },
  {
    "nombre": "Esteman and Daniela Spalla",
    "fecha": "2025-10-24",
    "lugar": "El Foro",
    "enlace": "https://www.songkick.com/concerts/42453496-esteman-at-el-foro",
    "latitude": 32.53095,
    "longitude": -117.03649,
    "distance_km": 1.79
  },
  {
    "nombre": "Esteman and Daniela Spalla",
    "fecha": "2025-10-24",
    "lugar": "El Foro",
    "enlace": "https://www.songkick.com/concerts/42453496-esteman-at-el-foro",
    "latitude": 32.53095,
    "longitude": -117.03649,
    "distance_km": 1.79
  },
  {
    "nombre": "El Zar",
    "fecha": "2025-10-25",
    "lugar": "Ah Mun",
    "enlace": "https://www.songkick.com/concerts/42756750-el-zar-at-ah-mun",
    "latitude": 32.52994,
    "longitude": -117.03672,
    "distance_km": 1.68
  },
  {
    "nombre": "El Zar",
    "fecha": "2025-10-25",
    "lugar": "Ah Mun",
    "enlace": "https://www.songkick.com/concerts/42756750-el-zar-at-ah-mun",
    "latitude": 32.52994,
    "longitude": -117.03672,
    "distance_km": 1.68
  },
  {
    "nombre": "Selofan",
    "fecha": "2025-10-26",
    "lugar": "Black Box",
    "enlace": "https://www.songkick.com/concerts/42592501-selofan-at-black-box",
    "latitude": 32.50895,
    "longitude": -117.03667,
    "distance_km": 0.68
  },
  {
    "nombre": "Selofan",
    "fecha": "2025-10-26",
    "lugar": "Black Box",
    "enlace": "https://www.songkick.com/concerts/42592501-selofan-at-black-box",
    "latitude": 32.50895,
    "longitude": -117.03667,
    "distance_km": 0.68
  },
  {
    "nombre": "Leo Jiménez",
    "fecha": "2025-10-27",
    "lugar": "Dragon Rojo",
    "enlace": "https://www.songkick.com/concerts/42708048-leo-jimenez-at-dragon-rojo",
    "latitude": 32.50845,
    "longitude": -116.99253,
    "distance_km": 4.34
  },
  {
    "nombre": "Leo Jiménez",
    "fecha": "2025-10-27",
    "lugar": "Dragon Rojo",
    "enlace": "https://www.songkick.com/concerts/42708048-leo-jimenez-at-dragon-rojo",
    "latitude": 32.50845,
    "longitude": -116.99253,
    "distance_km": 4.34
  },
  {
    "nombre": "Tito Double P",
    "fecha": "2025-11-01",
    "lugar": "Estadio Caliente",
    "enlace": "https://www.songkick.com/concerts/42763174-tito-double-p-at-estadio-caliente",
    "latitude": 32.50748,
    "longitude": -116.99643,
    "distance_km": 4
  },
  {
    "nombre": "Tito Double P",
    "fecha": "2025-11-01",
    "lugar": "Estadio Caliente",
    "enlace": "https://www.songkick.com/concerts/42763174-tito-double-p-at-estadio-caliente",
    "latitude": 32.50748,
    "longitude": -116.99643,
    "distance_km": 4
  },
  {
    "nombre": "Manuel Medrano",
    "fecha": "2025-11-07",
    "lugar": "El Foro Antiguo Palacio Jai Alai - Centro De Espectáculos",
    "enlace": "https://www.songkick.com/concerts/42564744-manuel-medrano-at-el-foro-antiguo-palacio-jai-alai-centro-de-espectaculos",
    "latitude": 32.52859,
    "longitude": -117.03609,
    "distance_km": 1.54
  },
  {
    "nombre": "Manuel Medrano",
    "fecha": "2025-11-07",
    "lugar": "El Foro Antiguo Palacio Jai Alai - Centro De Espectáculos",
    "enlace": "https://www.songkick.com/concerts/42564744-manuel-medrano-at-el-foro-antiguo-palacio-jai-alai-centro-de-espectaculos",
    "latitude": 32.52859,
    "longitude": -117.03609,
    "distance_km": 1.54
  },
  {
    "nombre": "Benjamín Walker",
    "fecha": "2025-11-07",
    "lugar": "Black Box",
    "enlace": "https://www.songkick.com/concerts/42756826-benjamin-walker-at-black-box",
    "latitude": 32.50895,
    "longitude": -117.03667,
    "distance_km": 0.68
  },
  {
    "nombre": "Benjamín Walker",
    "fecha": "2025-11-07",
    "lugar": "Black Box",
    "enlace": "https://www.songkick.com/concerts/42756826-benjamin-walker-at-black-box",
    "latitude": 32.50895,
    "longitude": -117.03667,
    "distance_km": 0.68
  },
  {
    "nombre": "Caifanes",
    "fecha": "2025-11-08",
    "lugar": "Plaza de Toros Monumental",
    "enlace": "https://www.songkick.com/concerts/42564583-caifanes-at-plaza-de-toros-monumental",
    "latitude": 32.53352,
    "longitude": -117.12154,
    "distance_km": 8.08
  },
  {
    "nombre": "Caifanes",
    "fecha": "2025-11-08",
    "lugar": "Plaza de Toros Monumental",
    "enlace": "https://www.songkick.com/concerts/42564583-caifanes-at-plaza-de-toros-monumental",
    "latitude": 32.53352,
    "longitude": -117.12154,
    "distance_km": 8.08
  },
  {
    "nombre": "Sekta Core",
    "fecha": "2025-11-08",
    "lugar": "Black Box",
    "enlace": "https://www.songkick.com/concerts/42764604-sekta-core-at-black-box",
    "latitude": 32.50895,
    "longitude": -117.03667,
    "distance_km": 0.68
  },
  {
    "nombre": "Sekta Core",
    "fecha": "2025-11-08",
    "lugar": "Black Box",
    "enlace": "https://www.songkick.com/concerts/42764604-sekta-core-at-black-box",
    "latitude": 32.50895,
    "longitude": -117.03667,
    "distance_km": 0.68
  },
  {
    "nombre": "Junior H",
    "fecha": "2025-11-09",
    "lugar": "Explanada del Estadio Caliente",
    "enlace": "https://www.songkick.com/concerts/42769025-junior-h-at-explanada-del-estadio-caliente",
    "latitude": 32.50597,
    "longitude": -116.99315,
    "distance_km": 4.34
  },
  {
    "nombre": "Junior H",
    "fecha": "2025-11-09",
    "lugar": "Explanada del Estadio Caliente",
    "enlace": "https://www.songkick.com/concerts/42769025-junior-h-at-explanada-del-estadio-caliente",
    "latitude": 32.50597,
    "longitude": -116.99315,
    "distance_km": 4.34
  },
  {
    "nombre": "Los Vaguens",
    "fecha": "2025-11-14",
    "lugar": "La República de Hops",
    "enlace": "https://www.songkick.com/concerts/42761149-los-vaguens-at-la-republica-de-hops",
    "latitude": 32.53401,
    "longitude": -117.03651,
    "distance_km": 2.13
  },
  {
    "nombre": "Los Vaguens",
    "fecha": "2025-11-14",
    "lugar": "La República de Hops",
    "enlace": "https://www.songkick.com/concerts/42761149-los-vaguens-at-la-republica-de-hops",
    "latitude": 32.53401,
    "longitude": -117.03651,
    "distance_km": 2.13
  },
  {
    "nombre": "Farmacos",
    "fecha": "2025-11-14",
    "lugar": "Black Box",
    "enlace": "https://www.songkick.com/concerts/42777727-farmacos-at-black-box",
    "latitude": 32.50895,
    "longitude": -117.03667,
    "distance_km": 0.68
  },
  {
    "nombre": "Farmacos",
    "fecha": "2025-11-14",
    "lugar": "Black Box",
    "enlace": "https://www.songkick.com/concerts/42777727-farmacos-at-black-box",
    "latitude": 32.50895,
    "longitude": -117.03667,
    "distance_km": 0.68
  },
  {
    "nombre": "Edgardo Nuñez and Salazar",
    "fecha": "2025-11-15",
    "lugar": "Plaza de Toros Monumental",
    "enlace": "https://www.songkick.com/concerts/42723880-edgardo-nunez-at-plaza-de-toros-monumental",
    "latitude": 32.53352,
    "longitude": -117.12154,
    "distance_km": 8.08
  },
  {
    "nombre": "Edgardo Nuñez and Salazar",
    "fecha": "2025-11-15",
    "lugar": "Plaza de Toros Monumental",
    "enlace": "https://www.songkick.com/concerts/42723880-edgardo-nunez-at-plaza-de-toros-monumental",
    "latitude": 32.53352,
    "longitude": -117.12154,
    "distance_km": 8.08
  },
  {
    "nombre": "Silvestre y La Naranja",
    "fecha": "2025-11-20",
    "lugar": "Black Box",
    "enlace": "https://www.songkick.com/concerts/42646355-silvestre-y-la-naranja-at-black-box",
    "latitude": 32.50895,
    "longitude": -117.03667,
    "distance_km": 0.68
  },
  {
    "nombre": "Silvestre y La Naranja",
    "fecha": "2025-11-20",
    "lugar": "Black Box",
    "enlace": "https://www.songkick.com/concerts/42646355-silvestre-y-la-naranja-at-black-box",
    "latitude": 32.50895,
    "longitude": -117.03667,
    "distance_km": 0.68
  },
  {
    "nombre": "Los Auténticos Decadentes",
    "fecha": "2025-11-22",
    "lugar": "El Foro",
    "enlace": "https://www.songkick.com/concerts/42522205-los-autenticos-decadentes-at-el-foro",
    "latitude": 32.53095,
    "longitude": -117.03649,
    "distance_km": 1.79
  },
  {
    "nombre": "Los Auténticos Decadentes",
    "fecha": "2025-11-22",
    "lugar": "El Foro",
    "enlace": "https://www.songkick.com/concerts/42522205-los-autenticos-decadentes-at-el-foro",
    "latitude": 32.53095,
    "longitude": -117.03649,
    "distance_km": 1.79
  },
  {
    "nombre": "Martin Ricca",
    "fecha": "2025-11-22",
    "lugar": "Black Box",
    "enlace": "https://www.songkick.com/concerts/42749445-martin-ricca-at-black-box",
    "latitude": 32.50895,
    "longitude": -117.03667,
    "distance_km": 0.68
  },
  {
    "nombre": "Martin Ricca",
    "fecha": "2025-11-22",
    "lugar": "Black Box",
    "enlace": "https://www.songkick.com/concerts/42749445-martin-ricca-at-black-box",
    "latitude": 32.50895,
    "longitude": -117.03667,
    "distance_km": 0.68
  },
  {
    "nombre": "Masterplan",
    "fecha": "2025-11-23",
    "lugar": "Black Box",
    "enlace": "https://www.songkick.com/concerts/42359738-masterplan-at-black-box",
    "latitude": 32.50895,
    "longitude": -117.03667,
    "distance_km": 0.68
  },
  {
    "nombre": "Masterplan",
    "fecha": "2025-11-23",
    "lugar": "Black Box",
    "enlace": "https://www.songkick.com/concerts/42359738-masterplan-at-black-box",
    "latitude": 32.50895,
    "longitude": -117.03667,
    "distance_km": 0.68
  },
  {
    "nombre": "José Madero",
    "fecha": "2025-12-06",
    "lugar": "Antiguo Cine Bujazan",
    "enlace": "https://www.songkick.com/concerts/42743833-jose-madero-at-antiguo-cine-bujazan"
  },
  {
    "nombre": "José Madero",
    "fecha": "2025-12-06",
    "lugar": "Antiguo Cine Bujazan",
    "enlace": "https://www.songkick.com/concerts/42743833-jose-madero-at-antiguo-cine-bujazan"
  },
  {
    "nombre": "C-Kan",
    "fecha": "2026-01-22",
    "lugar": "Audiorama El Trompo",
    "enlace": "https://www.songkick.com/concerts/42763166-ckan-at-audiorama-el-trompo",
    "latitude": 32.47735,
    "longitude": -116.92134,
    "distance_km": 11.73
  },
  {
    "nombre": "C-Kan",
    "fecha": "2026-01-22",
    "lugar": "Audiorama El Trompo",
    "enlace": "https://www.songkick.com/concerts/42763166-ckan-at-audiorama-el-trompo",
    "latitude": 32.47735,
    "longitude": -116.92134,
    "distance_km": 11.73
  }
]